{"version": 0.6, "generator": "Overpass API 0.7.62.11 87bfad18", "osm3s": {"timestamp_osm_base": "2026-03-30T18:26:55Z", "copyright": "The data included in this document is from www.openstreetmap.org. The data is made available under ODbL."}, "elements": [{"type": "node", "id": 3085404771, "lat": 48.9451019, "lon": -119.0509158}, {"type": "node", "id": 3085404788, "lat": 48.9452045, "lon": -119.0508888}, {"type": "node", "id": 3085404819, "lat": 48.9451092, "lon": -119.0510788}, {"type": "node", "id": 3085404824, "lat": 48.9452125, "lon": -119.0510681}, {"type": "node", "id": 7252241363, "lat": 48.9451408, "lon": -119.0509118}, {"type": "node", "id": 7252241364, "lat": 48.94514, "lon": -119.0508955}, {"type": "node", "id": 8343350462, "lat": 48.7037164, "lon": -119.4425738}, {"type": "node", "id": 8343350463, "lat": 48.7036384, "lon": -119.4427515}, {"type": "node", "id": 8343350464, "lat": 48.7037329, "lon": -119.4430085}, {"type": "node", "id": 8343350465, "lat": 48.7038478, "lon": -119.4429115}, {"type": "node", "id": 8343350466, "lat": 48.703816, "lon": -119.4428251}, {"type": "node", "id": 8343350467, "lat": 48.7039458, "lon": -119.4427155}, {"type": "node", "id": 8343350468, "lat": 48.7038517, "lon": -119.4424596}, {"type": "node", "id": 8343350470, "lat": 48.7037477, "lon": -119.4426591}, {"type": "way", "id": 304024135, "nodes": [3085404824, 3085404788, 7252241364, 7252241363, 3085404771, 3085404819, 3085404824], "tags": {"amenity": "fire_station", "building": "yes", "name": "Chesaw Fire Hall"}}, {"type": "way", "id": 897724232, "nodes": [8343350463, 8343350464, 8343350465, 8343350466, 8343350467, 8343350468, 8343350462, 8343350470, 8343350463], "tags": {"addr:city": "Tonasket", "addr:housenumber": "520", "addr:postcode": "98855", "addr:state": "WA", "addr:street": "South Western Avenue", "amenity": "fire_station", "building": "yes", "name": "Tonasket Fire Department"}}]}