{"version": 0.6, "generator": "Overpass API 0.7.62.11 87bfad18", "osm3s": {"timestamp_osm_base": "2026-03-30T17:36:43Z", "copyright": "The data included in this document is from www.openstreetmap.org. The data is made available under ODbL."}, "elements": [{"type": "node", "id": 367129219, "lat": 35.8173458, "lon": -94.1883194, "tags": {"addr:state": "AR", "amenity": "fire_station", "ele": "576", "gnis:feature_id": "2116183", "name": "Boston Mountain Fire Department Station 3", "source": "USGS Geonames"}}, {"type": "node", "id": 367129220, "lat": 35.8145452, "lon": -94.1310039, "tags": {"addr:state": "AR", "amenity": "fire_station", "ele": "496", "gnis:feature_id": "2116182", "name": "Boston Mountain Fire Department Station 2", "source": "USGS Geonames"}}, {"type": "node", "id": 367130007, "lat": 35.9496579, "lon": -94.4227106, "tags": {"addr:state": "AR", "amenity": "fire_station", "ele": "449", "gnis:feature_id": "2116714", "name": "Lincoln Volunteer Fire Department", "source": "USGS Geonames"}}, {"type": "node", "id": 367130110, "lat": 35.8596131, "lon": -94.4360727, "tags": {"addr:state": "AR", "amenity": "fire_station", "ele": "328", "gnis:feature_id": "2116818", "name": "Morrow Volunteer Fire Department", "source": "USGS Geonames"}}, {"type": "node", "id": 367130125, "lat": 35.633975, "lon": -94.1692984, "tags": {"addr:state": "AR", "amenity": "fire_station", "ele": "225", "gnis:feature_id": "2116836", "name": "Mountainburg Fire District 3", "source": "USGS Geonames"}}, {"type": "node", "id": 367130334, "lat": 35.73243, "lon": -94.0252313, "tags": {"addr:state": "AR", "amenity": "fire_station", "ele": "667", "gnis:feature_id": "2117073", "name": "Rural Fire District 8 Station 4", "source": "USGS Geonames"}}, {"type": "node", "id": 367130335, "lat": 35.752896, "lon": -94.1152673, "tags": {"addr:state": "AR", "amenity": "fire_station", "ele": "635", "gnis:feature_id": "2117072", "name": "Rural Fire District 8 Station 1", "source": "USGS Geonames"}}, {"type": "node", "id": 367130339, "lat": 35.6664427, "lon": -94.0734652, "tags": {"addr:state": "AR", "amenity": "fire_station", "ele": "495", "gnis:feature_id": "2117060", "name": "Rural Fire District 3 Locke", "source": "USGS Geonames"}}, {"type": "node", "id": 367130341, "lat": 35.6787189, "lon": -94.1784121, "tags": {"addr:state": "AR", "amenity": "fire_station", "ele": "264", "gnis:feature_id": "2117058", "name": "Rural Fire District 3 Chester", "source": "USGS Geonames"}}, {"type": "node", "id": 367130344, "lat": 35.6073183, "lon": -94.2721265, "tags": {"addr:state": "AR", "amenity": "fire_station", "ele": "377", "gnis:feature_id": "2117063", "name": "Rural Fire District 4 Station 88", "source": "USGS Geonames"}}, {"type": "node", "id": 367130345, "lat": 35.6790185, "lon": -94.3438345, "tags": {"addr:state": "AR", "amenity": "fire_station", "ele": "321", "gnis:feature_id": "2117062", "name": "Rural Fire District 4 Cove City", "source": "USGS Geonames"}}, {"type": "node", "id": 367130387, "lat": 35.6483351, "lon": -94.3948886, "tags": {"addr:state": "AR", "amenity": "fire_station", "ele": "201", "gnis:feature_id": "2117074", "name": "Rural Fire District 9 Station 1", "source": "USGS Geonames"}}, {"type": "node", "id": 367130451, "lat": 35.9235499, "lon": -94.1903914, "tags": {"addr:state": "AR", "amenity": "fire_station", "ele": "415", "gnis:feature_id": "2117292", "name": "West Fork Volunteer Fire Department Station 1", "source": "USGS Geonames"}}, {"type": "node", "id": 367130477, "lat": 35.8118321, "lon": -94.012712, "tags": {"addr:state": "AR", "amenity": "fire_station", "ele": "691", "gnis:feature_id": "2117195", "name": "Sunset Volunteer Fire Department", "source": "USGS Geonames"}}, {"type": "node", "id": 367130494, "lat": 35.8317394, "lon": -94.3117637, "tags": {"addr:state": "AR", "amenity": "fire_station", "ele": "460", "gnis:feature_id": "2117177", "name": "Strickler Volunteer Fire Department", "source": "USGS Geonames"}}, {"type": "node", "id": 367130781, "lat": 35.8953689, "lon": -94.0397942, "tags": {"addr:state": "AR", "amenity": "fire_station", "ele": "442", "gnis:feature_id": "2117315", "name": "Whitehouse Volunteer Fire Department", "source": "USGS Geonames"}}]}