{"version": 0.6, "generator": "Overpass API 0.7.62.11 87bfad18", "osm3s": {"timestamp_osm_base": "2026-03-30T17:37:51Z", "copyright": "The data included in this document is from www.openstreetmap.org. The data is made available under ODbL."}, "elements": [{"type": "node", "id": 9910806574, "lat": 33.515841, "lon": -94.636119}, {"type": "node", "id": 9910806575, "lat": 33.5157799, "lon": -94.6358616}, {"type": "node", "id": 9910806576, "lat": 33.5155197, "lon": -94.6359505}, {"type": "node", "id": 9910806577, "lat": 33.5155807, "lon": -94.6362079}, {"type": "node", "id": 10826152672, "lat": 33.4608009, "lon": -94.4163613}, {"type": "node", "id": 10826152675, "lat": 33.4606471, "lon": -94.416351}, {"type": "node", "id": 10826152676, "lat": 33.4609923, "lon": -94.4163741}, {"type": "node", "id": 10826152677, "lat": 33.4609855, "lon": -94.4165207}, {"type": "node", "id": 10826152678, "lat": 33.4606403, "lon": -94.4164975}, {"type": "node", "id": 12397048015, "lat": 33.2053467, "lon": -94.6777836, "tags": {"amenity": "fire_station", "operator": "Naples Emergency Services"}}, {"type": "way", "id": 1081304279, "nodes": [9910806574, 9910806575, 9910806576, 9910806577, 9910806574], "tags": {"addr:city": "De Kalb", "addr:housenumber": "103", "addr:postcode": "75559", "addr:state": "TX", "addr:street": "Liberty Street", "amenity": "fire_station", "building": "yes", "name": "De Kalb Volunteer Fire Department"}}, {"type": "way", "id": 1164060535, "nodes": [10826152672, 10826152676, 10826152677, 10826152678, 10826152675, 10826152672], "tags": {"amenity": "fire_station", "building": "yes", "contact:website": "https://www.nbcitytx.org/Fire-Department.html", "name": "Laney/Williams Fire Station", "operator": "City of New Boston"}}]}