{"version": 0.6, "generator": "Overpass API 0.7.62.11 87bfad18", "osm3s": {"timestamp_osm_base": "2026-03-30T17:24:36Z", "copyright": "The data included in this document is from www.openstreetmap.org. The data is made available under ODbL."}, "elements": [{"type": "node", "id": 2161808921, "lat": 33.298128, "lon": -96.402253}, {"type": "node", "id": 2807325687, "lat": 33.513211, "lon": -96.3943263}, {"type": "node", "id": 2807325688, "lat": 33.5130807, "lon": -96.3943315}, {"type": "node", "id": 2807325690, "lat": 33.5132075, "lon": -96.3941983}, {"type": "node", "id": 2807325691, "lat": 33.5130706, "lon": -96.3943319}, {"type": "node", "id": 2807325692, "lat": 33.513067, "lon": -96.3942038}, {"type": "node", "id": 6165352027, "lat": 33.2182679, "lon": -96.287455}, {"type": "node", "id": 6653678875, "lat": 33.298128, "lon": -96.402116}, {"type": "node", "id": 6653682334, "lat": 33.298377, "lon": -96.402116}, {"type": "node", "id": 6653685942, "lat": 33.298377, "lon": -96.402253}, {"type": "node", "id": 6725416858, "lat": 33.293371, "lon": -96.195648}, {"type": "node", "id": 6725420190, "lat": 33.2184961, "lon": -96.287427}, {"type": "node", "id": 6725422416, "lat": 33.218394, "lon": -96.2873046}, {"type": "node", "id": 6725422688, "lat": 33.293483, "lon": -96.195337}, {"type": "node", "id": 6725426293, "lat": 33.21837, "lon": -96.2875774}, {"type": "node", "id": 6725426302, "lat": 33.293371, "lon": -96.195337}, {"type": "node", "id": 6725428700, "lat": 33.293483, "lon": -96.195648}, {"type": "node", "id": 10099878118, "lat": 33.3479476, "lon": -96.5508461}, {"type": "node", "id": 10099878119, "lat": 33.3479435, "lon": -96.5505863}, {"type": "node", "id": 10099878120, "lat": 33.3475581, "lon": -96.5505952}, {"type": "node", "id": 10099878121, "lat": 33.3475597, "lon": -96.5506978}, {"type": "node", "id": 10099878122, "lat": 33.3475141, "lon": -96.5506988}, {"type": "node", "id": 10099878123, "lat": 33.3475159, "lon": -96.5508148}, {"type": "node", "id": 10099878124, "lat": 33.3476197, "lon": -96.5508125}, {"type": "node", "id": 10099878125, "lat": 33.3476241, "lon": -96.5510883}, {"type": "node", "id": 10099878126, "lat": 33.3478097, "lon": -96.5510841}, {"type": "node", "id": 10099878127, "lat": 33.347806, "lon": -96.5508493}, {"type": "way", "id": 276102096, "nodes": [2807325687, 2807325688, 2807325691, 2807325692, 2807325690, 2807325687], "tags": {"amenity": "fire_station", "building": "yes", "name": "Whitewright Fire Department"}}, {"type": "way", "id": 708099828, "nodes": [2161808921, 6653685942, 6653682334, 6653678875, 2161808921], "tags": {"amenity": "fire_station", "building": "fire_station", "name": "Blue Ridge Fire Department"}}, {"type": "way", "id": 715612585, "nodes": [6165352027, 6725426293, 6725420190, 6725422416, 6165352027], "tags": {"addr:city": "Farmersville", "addr:housenumber": "5523", "addr:postcode": "75442", "addr:state": "TX", "addr:street": "4th Street", "amenity": "fire_station", "building": "yes", "name": "Merit Volunteer Fire Department", "phone": "+1 903 776 2285"}}, {"type": "way", "id": 715613533, "nodes": [6725416858, 6725428700, 6725422688, 6725426302, 6725416858], "tags": {"addr:city": "Celeste", "addr:housenumber": "102", "addr:postcode": "75423", "addr:state": "TX", "addr:street": "South Second Street", "amenity": "fire_station", "building": "fire_station", "email": "celestevfd33@gmail.com", "name": "City of Celeste Volunteer Fire Department", "phone": "+1-903-568-4713", "website": "https://www.cityofceleste.org/fire-department"}}, {"type": "way", "id": 1103704076, "nodes": [10099878118, 10099878119, 10099878120, 10099878121, 10099878122, 10099878123, 10099878124, 10099878125, 10099878126, 10099878127, 10099878118], "tags": {"addr:city": "Anna", "addr:housenumber": "305", "addr:postcode": "75409", "addr:state": "TX", "addr:street": "South Powell Parkway", "amenity": "fire_station", "building": "fire_station", "fax": "+1-972-924-2772", "name": "Anna Fire Department", "operator": "Anna Fire Department", "phone": "+1-972-924-2143", "website": "https://www.annatexas.gov/196/Fire-Department"}}]}