{"version": 0.6, "generator": "Overpass API 0.7.62.11 87bfad18", "osm3s": {"timestamp_osm_base": "2026-03-30T17:34:42Z", "copyright": "The data included in this document is from www.openstreetmap.org. The data is made available under ODbL."}, "elements": [{"type": "node", "id": 367129166, "lat": 34.7802962, "lon": -94.0484716, "tags": {"addr:state": "AR", "amenity": "fire_station", "ele": "204", "gnis:feature_id": "2116170", "name": "Boles Volunteer Fire Department", "source": "USGS Geonames"}}, {"type": "node", "id": 367129558, "lat": 35.1694837, "lon": -94.3317414, "tags": {"addr:state": "AR", "amenity": "fire_station", "ele": "182", "gnis:feature_id": "2116416", "name": "Excelsior / Mount Zion / Palestine Rural Fire Department", "source": "USGS Geonames"}}, {"type": "node", "id": 367129622, "lat": 35.073147, "lon": -93.9556098, "tags": {"addr:state": "AR", "amenity": "fire_station", "ele": "193", "gnis:feature_id": "2116486", "name": "Golden City Volunteer Fire Department", "source": "USGS Geonames"}}, {"type": "node", "id": 367129693, "lat": 34.8797315, "lon": -93.9732369, "tags": {"addr:state": "AR", "amenity": "fire_station", "ele": "277", "gnis:feature_id": "2116569", "name": "Highway 250 Rural Volunteer Fire Department", "source": "USGS Geonames"}}, {"type": "node", "id": 367129745, "lat": 35.0190142, "lon": -94.3811912, "tags": {"addr:state": "AR", "amenity": "fire_station", "ele": "195", "gnis:feature_id": "2116540", "name": "Hartford Volunteer Fire Department", "source": "USGS Geonames"}}, {"type": "node", "id": 367129824, "lat": 35.0619435, "lon": -94.049775, "tags": {"addr:state": "AR", "amenity": "fire_station", "ele": "173", "gnis:feature_id": "2116620", "name": "Ione Volunteer Fire Department", "source": "USGS Geonames"}}, {"type": "node", "id": 367129863, "lat": 34.9416356, "lon": -94.1847901, "tags": {"addr:state": "AR", "amenity": "fire_station", "ele": "200", "gnis:feature_id": "2116592", "name": "Hon Volunteer Fire Department", "source": "USGS Geonames"}}, {"type": "node", "id": 367129888, "lat": 34.8579934, "lon": -94.3053585, "tags": {"addr:state": "AR", "amenity": "fire_station", "ele": "246", "gnis:feature_id": "2116685", "name": "Lake Hinkle Fire Station", "source": "USGS Geonames"}}, {"type": "node", "id": 367129941, "lat": 35.0610228, "lon": -94.2507244, "tags": {"addr:state": "AR", "amenity": "fire_station", "ele": "183", "gnis:feature_id": "2116760", "name": "Mansfield Fire Station", "source": "USGS Geonames"}}, {"type": "node", "id": 367130042, "lat": 35.0732865, "lon": -94.1924616, "tags": {"addr:state": "AR", "amenity": "fire_station", "ele": "189", "gnis:feature_id": "2116883", "name": "Northwest Scott County Volunteer Fire Department Station 2", "source": "USGS Geonames"}}, {"type": "node", "id": 367130045, "lat": 35.0237096, "lon": -94.1595669, "tags": {"addr:state": "AR", "amenity": "fire_station", "ele": "207", "gnis:feature_id": "2116882", "name": "Northwest Scott County Volunteer Fire Department Station 1", "source": "USGS Geonames"}}, {"type": "node", "id": 367130088, "lat": 35.1565443, "lon": -94.1492356, "tags": {"addr:state": "AR", "amenity": "fire_station", "ele": "208", "gnis:feature_id": "2116799", "name": "Milltown Washburn Fire Station", "source": "USGS Geonames"}}, {"type": "node", "id": 367130089, "lat": 35.1793554, "lon": -94.10031, "tags": {"addr:state": "AR", "amenity": "fire_station", "ele": "181", "gnis:feature_id": "2116798", "name": "Milltown Washbun Fire Department Station 2", "source": "USGS Geonames"}}, {"type": "node", "id": 367130235, "lat": 34.8037069, "lon": -93.9598884, "tags": {"addr:state": "AR", "amenity": "fire_station", "ele": "206", "gnis:feature_id": "2116936", "name": "Parks Volunteer Fire Department Station 1", "source": "USGS Geonames"}}, {"type": "node", "id": 367130407, "lat": 34.9006154, "lon": -94.0867922, "tags": {"addr:state": "AR", "amenity": "fire_station", "ele": "202", "gnis:feature_id": "2117262", "name": "Waldron Rural Volunteer Fire Department Station 1", "source": "USGS Geonames"}}, {"type": "node", "id": 367130408, "lat": 34.9270491, "lon": -94.0145149, "tags": {"addr:state": "AR", "amenity": "fire_station", "ele": "228", "gnis:feature_id": "2117263", "name": "Waldron Rural Volunteer Fire Department Station 2", "source": "USGS Geonames"}}, {"type": "node", "id": 367130410, "lat": 34.8972746, "lon": -94.0903953, "tags": {"addr:state": "AR", "amenity": "fire_station", "ele": "202", "gnis:feature_id": "2117261", "name": "Waldron City Volunteer Fire Department", "source": "USGS Geonames"}}, {"type": "node", "id": 367130490, "lat": 34.9261006, "lon": -94.2748875, "tags": {"addr:state": "AR", "amenity": "fire_station", "ele": "200", "gnis:feature_id": "2117173", "name": "State Line Cauthron Volunteer Fire Department Station", "source": "USGS Geonames"}}, {"type": "node", "id": 367130491, "lat": 34.9079204, "lon": -94.382887, "tags": {"addr:state": "AR", "amenity": "fire_station", "ele": "185", "gnis:feature_id": "2117172", "name": "State Line Bates Volunteer Fire Department", "source": "USGS Geonames"}}, {"type": "node", "id": 367130502, "lat": 35.0955342, "lon": -94.406363, "tags": {"addr:state": "AR", "amenity": "fire_station", "ele": "204", "gnis:feature_id": "2117185", "name": "Sugarloaf / Slaytonville Fire Station", "source": "USGS Geonames"}}, {"type": "node", "id": 9297658834, "lat": 35.0847878, "lon": -94.265161}, {"type": "node", "id": 9297658866, "lat": 35.084699, "lon": -94.2650607}, {"type": "node", "id": 9297658870, "lat": 35.084653, "lon": -94.2653393}, {"type": "node", "id": 9297676440, "lat": 35.0845642, "lon": -94.265239}, {"type": "node", "id": 11461731579, "lat": 35.0926196, "lon": -94.3548836}, {"type": "node", "id": 11461731580, "lat": 35.0923484, "lon": -94.355097}, {"type": "node", "id": 11461731581, "lat": 35.0922362, "lon": -94.3548841}, {"type": "node", "id": 11461731582, "lat": 35.092472, "lon": -94.3546986}, {"type": "node", "id": 11461731583, "lat": 35.0925314, "lon": -94.3548115}, {"type": "node", "id": 11461731584, "lat": 35.0925669, "lon": -94.3547835}, {"type": "way", "id": 1007825728, "nodes": [9297658870, 9297676440, 9297658866, 9297658834, 9297658870], "tags": {"addr:city": "Huntington", "addr:housenumber": "204", "addr:postcode": "72940", "addr:state": "AR", "addr:street": "West Russell Street", "amenity": "fire_station", "building": "yes", "ele": "181", "gnis:feature_id": "2116612", "name": "Huntington Volunteer Fire Department", "source": "USGS Geonames"}}, {"type": "way", "id": 1234806430, "nodes": [11461731579, 11461731580, 11461731581, 11461731582, 11461731583, 11461731584, 11461731579], "tags": {"amenity": "fire_station", "building": "yes", "name": "Midland Fire Station"}}]}