{"version": 0.6, "generator": "Overpass API 0.7.62.11 87bfad18", "osm3s": {"timestamp_osm_base": "2026-03-30T17:27:42Z", "copyright": "The data included in this document is from www.openstreetmap.org. The data is made available under ODbL."}, "elements": [{"type": "node", "id": 13341322237, "lat": 35.1233305, "lon": -95.6750681}, {"type": "node", "id": 13341322240, "lat": 35.1235331, "lon": -95.6750738}, {"type": "node", "id": 13341322241, "lat": 35.1235303, "lon": -95.6752231}, {"type": "node", "id": 13341322242, "lat": 35.1231993, "lon": -95.6752139}, {"type": "node", "id": 13341322243, "lat": 35.1232021, "lon": -95.6750645}, {"type": "way", "id": 1454772358, "nodes": [13341322240, 13341322241, 13341322242, 13341322243, 13341322237, 13341322240], "tags": {"addr:city": "Crowder", "addr:housenumber": "805", "addr:postcode": "74430", "addr:state": "OK", "addr:street": "Bond Street", "amenity": "fire_station", "building": "yes", "name": "Crowder Volunteer Fire Department", "phone": "+1-918-424-2256"}}]}