{"version": 0.6, "generator": "Overpass API 0.7.62.11 87bfad18", "osm3s": {"timestamp_osm_base": "2026-03-30T18:53:30Z", "copyright": "The data included in this document is from www.openstreetmap.org. The data is made available under ODbL."}, "elements": [{"type": "node", "id": 2209145038, "lat": 35.7976678, "lon": -95.252225}, {"type": "node", "id": 2209145039, "lat": 35.7975404, "lon": -95.2519632}, {"type": "node", "id": 2209145040, "lat": 35.7977275, "lon": -95.2520822}, {"type": "node", "id": 2209145041, "lat": 35.7974807, "lon": -95.252106}, {"type": "node", "id": 4213173608, "lat": 35.7975785, "lon": -95.2521682}, {"type": "node", "id": 9365469145, "lat": 35.797673, "lon": -95.2519829, "tags": {"addr:city": "Fort Gibson", "addr:postcode": "74434", "addr:state": "OK", "amenity": "fire_station", "gnis:feature_id": "2656822", "name": "Fort Gibson Fire Department", "source": "United States Geological Survey"}}, {"type": "node", "id": 13090692050, "lat": 35.8776798, "lon": -94.979195}, {"type": "node", "id": 13090692051, "lat": 35.8775981, "lon": -94.9790612}, {"type": "node", "id": 13090692052, "lat": 35.8777417, "lon": -94.9789395}, {"type": "node", "id": 13090692053, "lat": 35.8778094, "lon": -94.9790751}, {"type": "node", "id": 13090692054, "lat": 35.8778727, "lon": -94.9792211}, {"type": "node", "id": 13090692055, "lat": 35.8777784, "lon": -94.9793115}, {"type": "node", "id": 13090692056, "lat": 35.8777572, "lon": -94.9792802}, {"type": "node", "id": 13090692057, "lat": 35.8777403, "lon": -94.9792976}, {"type": "node", "id": 13090692058, "lat": 35.8776967, "lon": -94.9792211}, {"type": "node", "id": 13090692059, "lat": 35.8777094, "lon": -94.9791985}, {"type": "node", "id": 13090692060, "lat": 35.8776981, "lon": -94.9791724}, {"type": "node", "id": 13090692061, "lat": 35.8777993, "lon": -94.9790821}, {"type": "way", "id": 210882684, "nodes": [2209145040, 2209145039, 2209145041, 4213173608, 2209145038, 2209145040], "tags": {"addr:city": "Fort Gibson", "addr:housenumber": "200", "addr:postcode": "74434", "addr:street": "West Poplar Street", "amenity": "fire_station", "building": "yes", "ele": "168", "gnis:feature_id": "2656822", "name": "Fort Gibson Fire Department"}}, {"type": "way", "id": 1424247992, "nodes": [13090692050, 13090692051, 13090692052, 13090692053, 13090692061, 13090692054, 13090692055, 13090692056, 13090692057, 13090692058, 13090692059, 13090692060, 13090692050], "tags": {"addr:city": "Tahlequah \u13d3\u13b5\u13c6", "addr:housenumber": "244", "addr:postcode": "74464", "addr:state": "OK", "addr:street": "Southridge Road", "amenity": "fire_station", "name": "Tahlequah Fire Station #2"}}]}